{
  "hoteles": [
    {
      "id": 1,
      "nombre": "Skiptube",
      "ciudad": "Tumauini",
      "direccion": "48962 Ohio Place",
      "latitud": 17.263531,
      "longitud": 121.834345
    },
    {
      "id": 2,
      "nombre": "Livepath",
      "ciudad": "Kambove",
      "direccion": "11515 Muir Point",
      "latitud": -10.8778699,
      "longitud": 26.5963713
    },
    {
      "id": 3,
      "nombre": "Devbug",
      "ciudad": "Jīma",
      "direccion": "731 Anthes Place",
      "latitud": 7.6738908,
      "longitud": 36.8357927
    },
    {
      "id": 4,
      "nombre": "Omba",
      "ciudad": "Sanli",
      "direccion": "3 John Wall Plaza",
      "latitud": 24.84662,
      "longitud": 116.746096
    },
    {
      "id": 5,
      "nombre": "Shufflester",
      "ciudad": "Budayuan",
      "direccion": "687 Hansons Court",
      "latitud": 40.935502,
      "longitud": 125.341233
    },
    {
      "id": 6,
      "nombre": "Bubblemix",
      "ciudad": "Nagaoka",
      "direccion": "3355 Mcguire Parkway",
      "latitud": 38.0413984,
      "longitud": 140.1610496
    },
    {
      "id": 7,
      "nombre": "Avaveo",
      "ciudad": "Neochóri",
      "direccion": "085 Sunnyside Place",
      "latitud": 39.3046388,
      "longitud": 23.2207655
    },
    {
      "id": 8,
      "nombre": "Katz",
      "ciudad": "Xam Nua",
      "direccion": "28907 Reindahl Trail",
      "latitud": 20.4170831,
      "longitud": 104.04787
    },
    {
      "id": 9,
      "nombre": "Jabbersphere",
      "ciudad": "Dongkan",
      "direccion": "2 Waxwing Crossing",
      "latitud": 33.398866,
      "longitud": 120.2625
    },
    {
      "id": 10,
      "nombre": "Oyoloo",
      "ciudad": "Saltsjöbaden",
      "direccion": "3 Springs Drive",
      "latitud": 59.2803437,
      "longitud": 18.2849323
    },
    {
      "id": 11,
      "nombre": "Aimbo",
      "ciudad": "Tempursari Wetan",
      "direccion": "97 Kinsman Way",
      "latitud": "-8.0522",
      "longitud": "112.4885"
    },
    {
      "id": 12,
      "nombre": "Tagtune",
      "ciudad": "Jiang’an",
      "direccion": "386 Moland Hill",
      "latitud": 30.600064,
      "longitud": 114.309091
    },
    {
      "id": 13,
      "nombre": "Kwimbee",
      "ciudad": "Neuzina",
      "direccion": "24 Hallows Court",
      "latitud": 45.3095119,
      "longitud": 20.7261064
    },
    {
      "id": 14,
      "nombre": "Skiba",
      "ciudad": "Sangat",
      "direccion": "2582 Namekagon Crossing",
      "latitud": 6.9304836,
      "longitud": 124.8918574
    },
    {
      "id": 15,
      "nombre": "Kamba",
      "ciudad": "San Francisco",
      "direccion": "82718 Oneill Parkway",
      "latitud": 9.7016493,
      "longitud": -84.1005807
    },
    {
      "id": 16,
      "nombre": "Wordware",
      "ciudad": "Sishan",
      "direccion": "0 Quincy Trail",
      "latitud": 30.2638032,
      "longitud": 102.8054753
    },
    {
      "id": 17,
      "nombre": "Nlounge",
      "ciudad": "Dobre",
      "direccion": "58212 Darwin Point",
      "latitud": 52.6884746,
      "longitud": 18.6122466
    },
    {
      "id": 18,
      "nombre": "Pixonyx",
      "ciudad": "Kawaguchi",
      "direccion": "6 Debs Pass",
      "latitud": 38.7933106,
      "longitud": 140.2234077
    },
    {
      "id": 19,
      "nombre": "Ozu",
      "ciudad": "Mānānwāla",
      "direccion": "349 Superior Parkway",
      "latitud": 31.4840951,
      "longitud": 73.7008274
    },
    {
      "id": 20,
      "nombre": "Twinder",
      "ciudad": "Xuancheng",
      "direccion": "300 Coolidge Center",
      "latitud": 30.940195,
      "longitud": 118.75868
    },
    {
      "id": 21,
      "nombre": "Einti",
      "ciudad": "Kalangala",
      "direccion": "712 Charing Cross Way",
      "latitud": -0.3208374,
      "longitud": 32.2937428
    },
    {
      "id": 22,
      "nombre": "Jabbertype",
      "ciudad": "Jaguariaíva",
      "direccion": "743 Stuart Way",
      "latitud": -24.2530306,
      "longitud": -49.7106625
    },
    {
      "id": 23,
      "nombre": "Skipstorm",
      "ciudad": "Vitória do Mearim",
      "direccion": "3 Green Hill",
      "latitud": -3.4603809,
      "longitud": -44.8721875
    },
    {
      "id": 24,
      "nombre": "Meedoo",
      "ciudad": "Tourcoing",
      "direccion": "10 2nd Point",
      "latitud": 50.716719,
      "longitud": 3.16806
    },
    {
      "id": 25,
      "nombre": "Photobug",
      "ciudad": "Bissorã",
      "direccion": "68 Briar Crest Junction",
      "latitud": 12.2294835,
      "longitud": -15.4478131
    },
    {
      "id": 26,
      "nombre": "Tagchat",
      "ciudad": "Banjar Ambengan",
      "direccion": "3978 Brickson Park Crossing",
      "latitud": -8.6182236,
      "longitud": 115.2276614
    },
    {
      "id": 27,
      "nombre": "Realbuzz",
      "ciudad": "Tabatinga",
      "direccion": "6 Everett Circle",
      "latitud": -21.7414439,
      "longitud": -48.6891129
    },
    {
      "id": 28,
      "nombre": "Voonix",
      "ciudad": "Verkhneye Kazanishche",
      "direccion": "455 Delladonna Parkway",
      "latitud": "42.73547",
      "longitud": "47.1378"
    },
    {
      "id": 29,
      "nombre": "Abatz",
      "ciudad": "Qingyun",
      "direccion": "4743 Old Shore Alley",
      "latitud": 37.775349,
      "longitud": 117.385256
    },
    {
      "id": 30,
      "nombre": "Kwideo",
      "ciudad": "Muḩammad Āghah Wuluswālī",
      "direccion": "434 Boyd Hill",
      "latitud": "34.21422",
      "longitud": "69.10026"
    },
    {
      "id": 31,
      "nombre": "Topiczoom",
      "ciudad": "Vostochnyy",
      "direccion": "33 Prairie Rose Drive",
      "latitud": 55.816131,
      "longitud": 37.8768991
    },
    {
      "id": 32,
      "nombre": "Wikivu",
      "ciudad": "Kotuń",
      "direccion": "6 Mendota Parkway",
      "latitud": 52.1598029,
      "longitud": 22.0590694
    },
    {
      "id": 33,
      "nombre": "Katz",
      "ciudad": "Guaxupé",
      "direccion": "21771 Oakridge Drive",
      "latitud": -21.3054884,
      "longitud": -46.7084932
    },
    {
      "id": 34,
      "nombre": "Trilia",
      "ciudad": "Shoushan",
      "direccion": "7757 Maple Court",
      "latitud": 26.534726,
      "longitud": 119.326773
    },
    {
      "id": 35,
      "nombre": "Zooveo",
      "ciudad": "Weiyuan",
      "direccion": "1 Norway Maple Drive",
      "latitud": 29.52744,
      "longitud": 104.668879
    },
    {
      "id": 36,
      "nombre": "Blognation",
      "ciudad": "Timbrangan",
      "direccion": "7322 Fordem Junction",
      "latitud": -6.8595223,
      "longitud": 111.4886997
    },
    {
      "id": 37,
      "nombre": "Tavu",
      "ciudad": "Praia Grande",
      "direccion": "5985 Express Point",
      "latitud": -24.0088421,
      "longitud": -46.4124616
    },
    {
      "id": 38,
      "nombre": "Devpulse",
      "ciudad": "Qobustan",
      "direccion": "179 Nova Drive",
      "latitud": 40.0877962,
      "longitud": 49.4030218
    },
    {
      "id": 39,
      "nombre": "Wordtune",
      "ciudad": "Brumadinho",
      "direccion": "33 Northfield Plaza",
      "latitud": -20.1514708,
      "longitud": -44.2010909
    },
    {
      "id": 40,
      "nombre": "Riffpath",
      "ciudad": "Malasiqui",
      "direccion": "96 Portage Way",
      "latitud": 15.92762,
      "longitud": 120.413631
    },
    {
      "id": 41,
      "nombre": "Chatterbridge",
      "ciudad": "Fundación",
      "direccion": "6698 Hanover Circle",
      "latitud": 10.5289556,
      "longitud": -73.7242486
    },
    {
      "id": 42,
      "nombre": "InnoZ",
      "ciudad": "Saboyá",
      "direccion": "38 Emmet Circle",
      "latitud": 5.6763925,
      "longitud": -73.8066163
    },
    {
      "id": 43,
      "nombre": "Rhynoodle",
      "ciudad": "Gowurdak",
      "direccion": "13489 Esker Terrace",
      "latitud": 37.8163881,
      "longitud": 66.0285106
    },
    {
      "id": 44,
      "nombre": "Jetpulse",
      "ciudad": "Yuanping",
      "direccion": "65 Leroy Alley",
      "latitud": 38.731402,
      "longitud": 112.711058
    },
    {
      "id": 45,
      "nombre": "Kazio",
      "ciudad": "Warung Wetan",
      "direccion": "5 Lawn Point",
      "latitud": -6.98493,
      "longitud": 112.47478
    },
    {
      "id": 46,
      "nombre": "Jaxworks",
      "ciudad": "Bopu",
      "direccion": "577 Spaight Drive",
      "latitud": 31.191643,
      "longitud": 121.389262
    },
    {
      "id": 47,
      "nombre": "Skynoodle",
      "ciudad": "Marulanda",
      "direccion": "9 Toban Crossing",
      "latitud": 5.2843859,
      "longitud": -75.259705
    },
    {
      "id": 48,
      "nombre": "Topicstorm",
      "ciudad": "Oro Timur",
      "direccion": "20492 Dixon Place",
      "latitud": -7.9060665,
      "longitud": 112.5201746
    },
    {
      "id": 49,
      "nombre": "Oyondu",
      "ciudad": "Marseille",
      "direccion": "8 Jenna Pass",
      "latitud": 43.7441795,
      "longitud": 2.511999
    },
    {
      "id": 50,
      "nombre": "Feedbug",
      "ciudad": "Baume-les-Dames",
      "direccion": "9055 Riverside Alley",
      "latitud": 47.343506,
      "longitud": 6.309262
    }
  ]
}
